time,x,y,z,roll,pitch,yaw,p,q,r,motor_1,motor_2,motor_3,motor_4,battery_voltage
0.000000,0.000090,0.000140,0.502170,-0.038793,-0.218778,-0.013930,0.042518,0.017716,-0.022558,0.553763,0.536102,0.545895,0.521798,3.700000
0.002500,-0.000123,-0.000032,0.494234,0.103964,0.286663,0.003612,-0.015415,-0.051005,0.003736,0.548419,0.568147,0.546018,0.543919,3.699975
0.005000,0.000041,0.000101,0.506975,1.194284,-0.013904,0.001478,0.021006,-0.016842,-0.009229,0.572783,0.544500,0.525149,0.524851,3.699950
0.007500,0.000038,0.000043,0.497445,0.006835,-0.136090,-0.014647,-0.008993,-0.025994,0.000190,0.574172,0.586783,0.535088,0.569465,3.699925
0.010000,-0.000223,-0.000003,0.500075,0.140755,-0.785733,-0.013883,0.005285,0.013375,0.010943,0.556352,0.566524,0.563747,0.556269,3.699900
0.012500,-0.000242,-0.000115,0.500470,0.647846,0.893062,-0.019044,-0.005921,0.004555,-0.012465,0.542076,0.548046,0.553549,0.545244,3.699875
0.015000,-0.000308,-0.000081,0.493675,-0.099402,-0.053106,-0.023666,-0.025071,-0.018116,0.004876,0.557789,0.541744,0.595844,0.549821,3.699850
0.017500,-0.000349,-0.000159,0.500757,0.318281,-0.654946,-0.021979,0.018480,0.008402,0.004848,0.524547,0.558239,0.576068,0.584560,3.699825
0.020000,-0.000379,-0.000229,0.496332,0.913882,-0.694067,-0.021050,0.017414,-0.031109,-0.006280,0.539560,0.533223,0.532475,0.541144,3.699800
0.022500,-0.000184,0.000064,0.506292,0.480187,-0.376638,-0.006455,0.015686,0.014261,-0.006547,0.540988,0.589239,0.535575,0.551673,3.699775
0.025000,-0.000084,0.000264,0.502787,0.698395,-0.427523,-0.000631,0.029992,-0.009170,0.019383,0.553349,0.548349,0.544552,0.592048,3.699750
0.027500,-0.000030,0.000237,0.502053,-0.770106,0.183403,0.020297,-0.025992,-0.023009,0.012702,0.552074,0.556716,0.567457,0.517161,3.699725
0.030000,-0.000068,0.000275,0.506410,-0.134303,-0.103755,0.004831,0.003233,0.006322,0.010254,0.568881,0.533125,0.541783,0.557310,3.699700
0.032500,-0.000009,0.000275,0.505974,-0.285415,-0.334766,-0.005987,-0.013723,0.026165,0.005723,0.566329,0.536344,0.536464,0.557809,3.699675
0.035000,0.000176,0.000124,0.505594,-0.226032,0.469216,0.000860,-0.027462,0.012289,-0.003968,0.575593,0.548377,0.544188,0.561270,3.699650
0.037500,0.000277,0.000238,0.500529,0.122637,-0.419212,0.007261,-0.014936,-0.004444,-0.000895,0.527751,0.531011,0.545829,0.545809,3.699625
0.040000,0.000358,0.000244,0.502676,0.148519,-0.445925,0.025666,-0.009666,-0.028560,0.010449,0.576795,0.545817,0.551627,0.566826,3.699600
0.042500,0.000272,0.000184,0.500429,-0.067853,0.669098,0.036194,-0.000412,0.005805,0.013382,0.558553,0.547830,0.551340,0.537596,3.699575
0.045000,0.000446,0.000229,0.502524,0.255111,0.242027,0.061801,0.002472,0.024829,0.007022,0.538105,0.565340,0.570068,0.560726,3.699550
0.047500,0.000484,0.000190,0.504592,-0.312697,-0.493795,0.054788,-0.008772,-0.049112,0.001033,0.546491,0.521113,0.547037,0.559978,3.699525
0.050000,0.000527,0.000337,0.503511,0.489018,-0.095503,0.056702,-0.020957,0.010900,0.010073,0.580912,0.553298,0.565428,0.527827,3.699500
0.052500,0.000597,0.000464,0.501776,0.420955,-0.228939,0.062586,-0.015173,-0.010826,0.005971,0.555088,0.543795,0.568523,0.572201,3.699475
0.055000,0.000649,0.000587,0.498592,-0.019948,-0.669235,0.072508,-0.005908,-0.001363,0.005378,0.570465,0.547674,0.552566,0.547390,3.699450
0.057500,0.000659,0.000658,0.503525,-0.066770,0.009243,0.064009,-0.019749,-0.030881,-0.008588,0.539822,0.561789,0.530174,0.533287,3.699425
0.060000,0.000614,0.000539,0.507304,0.047321,0.009813,0.066177,-0.003713,0.001127,-0.001962,0.525280,0.548462,0.567002,0.544901,3.699400
0.062500,0.000623,0.000397,0.497612,0.675080,-0.222773,0.071388,0.029052,0.025012,-0.000616,0.537686,0.544182,0.549712,0.549794,3.699375
0.065000,0.000638,0.000489,0.501016,0.144557,0.324826,0.073519,0.023961,-0.004394,0.004368,0.536426,0.570617,0.561333,0.539276,3.699350
0.067500,0.000624,0.000705,0.498861,-0.011605,0.824557,0.070448,0.004793,0.021394,-0.009755,0.529366,0.514645,0.554028,0.557304,3.699325
0.070000,0.000621,0.000819,0.489427,-0.327257,0.104626,0.075921,-0.016703,-0.032543,0.006669,0.550318,0.543974,0.584812,0.530178,3.699300
0.072500,0.000720,0.000887,0.502620,-0.144563,-0.098871,0.085263,-0.003255,0.001697,-0.001788,0.506188,0.553591,0.505021,0.552377,3.699275
0.075000,0.000838,0.000958,0.499683,0.292459,-0.140576,0.092385,0.004738,-0.020149,0.000017,0.526663,0.548127,0.563662,0.519205,3.699250
0.077500,0.000844,0.000996,0.501194,-0.400059,0.034874,0.096875,-0.019176,0.024398,-0.015033,0.561358,0.526586,0.555900,0.556925,3.699225
0.080000,0.000764,0.000968,0.499282,-0.765791,0.235477,0.102424,0.005626,-0.004464,0.000516,0.563600,0.551058,0.521092,0.575309,3.699200
0.082500,0.000777,0.000970,0.495812,0.511380,-0.625308,0.100346,0.034059,0.015356,-0.007549,0.529749,0.549507,0.539708,0.540979,3.699175
0.085000,0.000685,0.000920,0.498854,-0.063491,0.640593,0.097607,-0.016929,-0.016312,-0.005587,0.533706,0.538441,0.545665,0.574830,3.699150
0.087500,0.000657,0.001000,0.500998,0.449443,0.330303,0.108537,-0.004662,0.025727,-0.006692,0.547118,0.525142,0.595279,0.549516,3.699125
0.090000,0.000817,0.000898,0.500248,0.482120,-0.616124,0.109659,0.014575,0.006555,-0.004863,0.533463,0.573851,0.596915,0.567627,3.699100
0.092500,0.000802,0.000875,0.504821,-0.041667,-0.049785,0.120358,0.015879,0.015590,-0.004255,0.557668,0.538783,0.543690,0.532535,3.699075
0.095000,0.000781,0.000805,0.490882,0.230595,0.318972,0.127309,0.022572,-0.007166,0.004916,0.565318,0.533888,0.555574,0.533346,3.699050
0.097500,0.000642,0.000937,0.501065,-0.627964,0.533521,0.119266,-0.002446,-0.018271,0.008635,0.549270,0.568494,0.575338,0.594489,3.699025
0.100000,0.000659,0.000899,0.503274,0.606402,-0.502539,0.119955,0.017320,0.011370,0.000203,0.562219,0.550644,0.519911,0.547517,3.699000
0.102500,0.000690,0.001042,0.506884,-0.595446,-0.633315,0.130024,0.009117,0.014352,-0.012452,0.570263,0.564623,0.517898,0.544538,3.698975
0.105000,0.000657,0.001163,0.496314,0.036255,0.026791,0.121999,-0.015070,0.014290,-0.004689,0.535475,0.573491,0.565969,0.574716,3.698950
0.107500,0.000518,0.001063,0.500916,-0.140497,-0.529346,0.119166,-0.026548,-0.008014,-0.025450,0.534809,0.531765,0.524674,0.577217,3.698925
0.110000,0.000565,0.001061,0.498518,0.234658,-0.262163,0.111684,0.019831,0.005331,0.002726,0.575556,0.518172,0.545187,0.549759,3.698900
0.112500,0.000598,0.001082,0.508144,0.976696,-0.370720,0.097175,-0.030591,0.025581,-0.009750,0.567305,0.537737,0.543150,0.558517,3.698875
0.115000,0.000637,0.001039,0.497536,0.397490,0.504418,0.084494,-0.018589,0.000591,0.021313,0.559512,0.575347,0.534963,0.536423,3.698850
0.117500,0.000671,0.001246,0.499798,-0.464248,0.121494,0.090490,-0.030146,-0.004638,0.011041,0.546235,0.553560,0.540401,0.535946,3.698825
0.120000,0.000663,0.001052,0.503320,-0.595456,-0.600539,0.085111,0.032279,-0.009908,-0.011555,0.550319,0.541939,0.556705,0.608180,3.698800
0.122500,0.000671,0.000811,0.502387,-0.037258,0.490813,0.094634,0.022745,0.010912,0.001905,0.556543,0.536342,0.553463,0.567123,3.698775
0.125000,0.000716,0.000795,0.497676,0.484378,-0.344694,0.108698,-0.022023,-0.039199,0.005990,0.583507,0.562416,0.529914,0.568056,3.698750
0.127500,0.000717,0.000769,0.498567,-0.156421,-0.912211,0.111497,0.018590,0.002913,0.010165,0.543373,0.535330,0.509062,0.525744,3.698725
0.130000,0.000671,0.000662,0.505314,-0.196834,0.732514,0.134283,0.014213,0.013790,0.020820,0.524995,0.564213,0.573615,0.543796,3.698700
0.132500,0.000529,0.000589,0.500980,0.264444,0.033322,0.118644,0.003166,-0.023061,0.013562,0.561507,0.544038,0.534912,0.525666,3.698675
0.135000,0.000635,0.000599,0.510060,1.265655,-0.683641,0.106530,0.015743,-0.020565,0.006289,0.595086,0.564960,0.577610,0.578880,3.698650
0.137500,0.000639,0.000593,0.505373,-0.060190,-0.143304,0.110880,0.002336,0.032218,0.012326,0.540181,0.531445,0.531560,0.546044,3.698625
0.140000,0.000746,0.000494,0.506844,0.544002,0.229546,0.117114,-0.035659,-0.018608,-0.001517,0.533202,0.566665,0.571635,0.502995,3.698600
0.142500,0.000780,0.000574,0.497213,-1.048639,0.448533,0.127422,-0.000268,0.012604,0.003809,0.543988,0.550542,0.547979,0.542427,3.698575
0.145000,0.000692,0.000461,0.506012,0.456268,-0.053512,0.129414,-0.010469,-0.003965,-0.000915,0.541286,0.528693,0.543414,0.559369,3.698550
0.147500,0.000762,0.000455,0.502653,-0.073182,-1.176151,0.120446,-0.042924,-0.028847,0.009456,0.534955,0.508813,0.543333,0.550081,3.698525
0.150000,0.000748,0.000392,0.498235,1.940115,-0.309385,0.112271,0.013734,0.011604,-0.004822,0.549894,0.567753,0.549135,0.559704,3.698500
0.152500,0.000651,0.000528,0.493871,0.494862,-0.185337,0.101422,0.003185,-0.051221,0.006054,0.558891,0.595944,0.517892,0.522462,3.698475
0.155000,0.000719,0.000582,0.497591,0.339083,-0.452692,0.107483,-0.022186,0.018901,0.003304,0.571242,0.577853,0.547079,0.542296,3.698450
0.157500,0.000839,0.000471,0.504160,0.631715,0.521642,0.105838,0.023385,-0.013408,-0.011005,0.549476,0.556946,0.539100,0.533504,3.698425
0.160000,0.000796,0.000476,0.498071,0.210065,0.827825,0.107099,-0.014194,-0.020382,0.000235,0.522964,0.534308,0.562829,0.548356,3.698400
0.162500,0.000860,0.000469,0.501166,0.461010,-0.323935,0.098818,-0.026446,0.012362,-0.002882,0.549474,0.508013,0.534327,0.543835,3.698375
0.165000,0.001013,0.000549,0.498600,-0.538956,-0.785167,0.087964,-0.045496,-0.007687,0.010733,0.529349,0.526609,0.529592,0.564747,3.698350
0.167500,0.000990,0.000591,0.489203,-0.374728,-0.340069,0.089975,-0.018171,0.013051,0.017132,0.567677,0.555128,0.514261,0.557391,3.698325
0.170000,0.000966,0.000653,0.491537,0.435279,1.066176,0.090376,0.014591,-0.033751,-0.005830,0.565300,0.588023,0.500915,0.539135,3.698300
0.172500,0.000982,0.000782,0.501292,0.510809,0.295895,0.092546,-0.030476,0.014375,0.011085,0.557767,0.557081,0.546142,0.563423,3.698275
0.175000,0.001161,0.000835,0.513105,-0.719888,0.540614,0.092717,0.021742,0.010778,0.003447,0.505543,0.537467,0.570964,0.568212,3.698250
0.177500,0.001067,0.000919,0.493497,0.515373,0.833329,0.092599,-0.007068,0.012740,-0.023389,0.557355,0.574711,0.578966,0.531579,3.698225
0.180000,0.001054,0.000971,0.503675,-0.411865,0.080699,0.091366,0.032156,0.005349,0.014357,0.538517,0.515453,0.581135,0.539341,3.698200
0.182500,0.000983,0.001044,0.498471,-0.168498,-0.128618,0.081556,-0.015699,-0.000714,-0.002505,0.564985,0.535323,0.589818,0.529088,3.698175
0.185000,0.001018,0.001191,0.500398,-0.370854,-0.551309,0.073918,-0.008026,-0.016096,-0.009283,0.521214,0.589211,0.528680,0.547944,3.698150
0.187500,0.001120,0.001181,0.495375,0.096707,0.166082,0.069521,-0.013049,-0.016462,0.001492,0.540575,0.558251,0.525970,0.567066,3.698125
0.190000,0.001160,0.001227,0.510486,-0.939894,0.596039,0.054491,0.024260,0.030162,-0.005306,0.554633,0.515945,0.563222,0.537755,3.698100
0.192500,0.001043,0.001154,0.502192,0.485031,-0.315751,0.064405,0.009719,0.002197,-0.010426,0.515182,0.537403,0.583646,0.564703,3.698075
0.195000,0.001070,0.001043,0.504734,-0.106229,0.168893,0.049696,0.011743,0.011255,-0.009618,0.587858,0.545029,0.541112,0.540022,3.698050
0.197500,0.001053,0.001038,0.499412,0.349017,-0.042397,0.045308,-0.010463,-0.011906,-0.002561,0.573887,0.553458,0.565350,0.560872,3.698025
0.200000,0.001022,0.000982,0.500956,-0.085492,0.344387,0.055329,-0.004329,-0.030402,0.002420,0.520791,0.530504,0.561949,0.531137,3.698000
0.202500,0.000972,0.000897,0.500537,0.402582,0.260968,0.050988,0.009315,0.004497,-0.004889,0.549272,0.546909,0.540484,0.556593,3.697975
0.205000,0.000941,0.001087,0.507610,-0.403406,0.303490,0.055991,0.013167,0.008247,-0.010845,0.569320,0.569704,0.555694,0.509695,3.697950
0.207500,0.000718,0.000937,0.501548,0.183147,-0.062919,0.059117,0.039654,0.021104,-0.006532,0.559344,0.575552,0.586168,0.534832,3.697925
0.210000,0.000814,0.001131,0.505783,-0.884685,-1.267752,0.061116,-0.017603,0.003698,0.017128,0.554265,0.507215,0.577021,0.527520,3.697900
0.212500,0.000865,0.001001,0.495803,-1.014439,-0.109628,0.056881,0.011463,-0.063808,0.006409,0.545413,0.564464,0.548716,0.543093,3.697875
0.215000,0.000816,0.000925,0.501266,0.192814,0.207112,0.037134,0.000288,0.010043,0.001074,0.538908,0.591250,0.546491,0.546991,3.697850
0.217500,0.000788,0.000957,0.509090,0.037609,0.665178,0.031965,0.006414,0.030819,-0.006505,0.543629,0.499849,0.531153,0.562141,3.697825
0.220000,0.000752,0.000927,0.492270,-0.009542,-0.505723,0.039337,-0.042908,0.004593,-0.001551,0.524240,0.559032,0.535409,0.558750,3.697800
0.222500,0.000829,0.001024,0.494038,-0.118889,0.068979,0.059052,-0.015304,0.001475,0.004007,0.565724,0.523059,0.568315,0.567070,3.697775
0.225000,0.000878,0.001027,0.489105,1.208496,-0.336306,0.064165,-0.035588,0.004038,-0.006376,0.562581,0.570456,0.546429,0.557552,3.697750
0.227500,0.000937,0.001102,0.492467,-0.216130,0.328368,0.075679,0.012817,0.010070,0.006120,0.572652,0.579017,0.529181,0.572368,3.697725
0.230000,0.000944,0.000962,0.500389,-0.236000,0.510158,0.073843,0.011530,0.014492,-0.002866,0.532742,0.530944,0.546013,0.557827,3.697700
0.232500,0.000909,0.001002,0.497649,-0.387345,0.402209,0.071047,0.000989,0.025984,0.016534,0.523513,0.537846,0.551253,0.539695,3.697675
0.235000,0.000906,0.001012,0.498835,-0.479795,-0.205994,0.062746,0.013648,0.001497,0.000488,0.562184,0.557087,0.568748,0.572897,3.697650
0.237500,0.001049,0.000924,0.503474,0.434709,-0.032928,0.070926,0.020049,-0.014541,-0.002376,0.547228,0.579598,0.533692,0.544776,3.697625
0.240000,0.001063,0.000953,0.495134,-0.629108,-0.160014,0.062932,0.018850,-0.006209,0.001214,0.545795,0.532271,0.542418,0.546643,3.697600
0.242500,0.001079,0.000882,0.505544,-0.862121,0.322240,0.065765,-0.037517,0.019575,-0.003129,0.543444,0.514084,0.576587,0.528757,3.697575
0.245000,0.001039,0.000752,0.500489,0.347917,-0.644558,0.076194,-0.016849,0.027384,0.011377,0.569917,0.551562,0.545813,0.561792,3.697550
0.247500,0.000963,0.000723,0.511188,0.500025,-0.510108,0.056970,0.017011,-0.001873,0.002267,0.572850,0.548046,0.521367,0.573910,3.697525
0.250000,0.000864,0.000741,0.502191,0.287036,-0.393904,0.073081,0.005287,0.002791,0.002675,0.557489,0.572611,0.505576,0.550568,3.697500
0.252500,0.000924,0.000842,0.502533,-0.207221,0.201022,0.066657,0.016882,-0.030011,0.000373,0.534941,0.559403,0.532071,0.529839,3.697475
0.255000,0.000864,0.000640,0.496662,-0.323055,-0.114963,0.069099,-0.010974,0.001624,0.004465,0.542561,0.532983,0.564649,0.569077,3.697450
0.257500,0.000893,0.000740,0.499984,-0.723888,-0.252721,0.071815,0.014974,-0.016786,-0.000628,0.569858,0.564280,0.566808,0.522086,3.697425
0.260000,0.001073,0.000643,0.500272,-0.567804,-0.821151,0.063079,0.002718,-0.001991,-0.006137,0.576873,0.532553,0.516534,0.561024,3.697400
0.262500,0.000908,0.000732,0.506774,-0.614267,-0.390581,0.066763,0.005450,0.044768,0.005373,0.524886,0.554168,0.581622,0.556266,3.697375
0.265000,0.000867,0.000813,0.500210,-0.573276,0.330547,0.070416,0.010654,0.015575,-0.011146,0.547942,0.535475,0.541315,0.566494,3.697350
0.267500,0.000851,0.000628,0.501624,-0.148717,0.382531,0.033628,-0.010307,0.000941,0.021559,0.558426,0.532686,0.542766,0.547034,3.697325
0.270000,0.001132,0.000659,0.504563,-0.324605,0.320599,0.025183,0.008672,-0.001579,-0.004619,0.535505,0.512378,0.555980,0.521258,3.697300
0.272500,0.001150,0.000651,0.498335,0.448199,-0.330825,0.046051,0.014293,0.008154,-0.016943,0.538591,0.553706,0.568276,0.528307,3.697275
0.275000,0.001138,0.000678,0.497412,-0.667866,-0.224137,0.045399,0.019475,0.002780,0.012196,0.535780,0.554753,0.561238,0.563148,3.697250
0.277500,0.001076,0.000676,0.499451,-0.545173,0.466549,0.054458,-0.006506,0.019687,0.011454,0.528408,0.525004,0.590325,0.527360,3.697225
0.280000,0.001243,0.000678,0.497763,-0.121400,-0.144943,0.067170,0.017860,0.028172,-0.006698,0.555452,0.538590,0.545820,0.553316,3.697200
0.282500,0.001163,0.000824,0.494626,0.568324,-0.414466,0.078839,0.019078,0.006429,-0.001120,0.589289,0.556106,0.533631,0.540377,3.697175
0.285000,0.000984,0.000608,0.499549,-0.615989,-0.091707,0.080400,-0.019888,0.007557,-0.004253,0.582859,0.553892,0.530183,0.563718,3.697150
0.287500,0.001069,0.000612,0.502856,0.142425,-0.794353,0.071004,0.017771,-0.003074,0.006034,0.528732,0.572593,0.523249,0.555224,3.697125
0.290000,0.001024,0.000764,0.491411,0.190163,-0.277607,0.057626,-0.024760,0.002698,-0.005572,0.576927,0.541192,0.563799,0.548261,3.697100
0.292500,0.001072,0.000863,0.501455,-0.339878,-0.813901,0.046275,0.016154,-0.021024,-0.012107,0.558354,0.550261,0.587104,0.510819,3.697075
0.295000,0.001304,0.000899,0.502924,-0.061078,0.203235,0.046131,0.006284,-0.021566,0.021343,0.562034,0.558637,0.531737,0.568222,3.697050
0.297500,0.001324,0.000869,0.511180,0.991767,-0.277511,0.059418,-0.011071,-0.041777,-0.005182,0.522413,0.525214,0.590228,0.545054,3.697025
0.300000,0.001354,0.000916,0.502761,0.327264,-0.297322,0.081050,0.007026,-0.028155,-0.007790,0.532156,0.533325,0.543123,0.528844,3.697000
0.302500,0.001541,0.000913,0.494729,-0.666647,0.844878,0.088250,0.005836,-0.003349,-0.012732,0.539500,0.554868,0.564045,0.524105,3.696975
0.305000,0.001369,0.000811,0.497670,-1.021122,-0.522932,0.084513,-0.011248,-0.011165,0.008025,0.553256,0.549123,0.530689,0.548575,3.696950
0.307500,0.001392,0.000823,0.486359,-1.165642,0.389329,0.078159,0.006621,-0.006166,0.000591,0.562315,0.557610,0.552102,0.583116,3.696925
0.310000,0.001482,0.000876,0.499300,-0.063663,-0.748727,0.075224,-0.010431,-0.013015,0.002458,0.555266,0.510627,0.573331,0.549840,3.696900
0.312500,0.001665,0.001083,0.507291,-0.387995,0.136655,0.068803,-0.057619,0.003347,0.017958,0.572857,0.581677,0.572883,0.548767,3.696875
0.315000,0.001425,0.000974,0.498989,-0.169820,0.204325,0.066024,-0.012517,-0.020611,-0.003822,0.551811,0.525610,0.544447,0.572513,3.696850
0.317500,0.001499,0.001050,0.495829,0.068019,-0.368567,0.066717,-0.011525,0.022891,-0.006065,0.527328,0.507030,0.584831,0.522012,3.696825
0.320000,0.001508,0.001070,0.492800,0.198786,-0.349506,0.059631,0.034211,-0.012936,0.003568,0.586723,0.547908,0.551903,0.535520,3.696800
0.322500,0.001460,0.001095,0.503646,0.168527,0.018014,0.054450,-0.000264,0.041768,-0.016591,0.536463,0.549441,0.516070,0.543880,3.696775
0.325000,0.001555,0.000799,0.495887,-0.632590,-0.171955,0.057496,0.009686,-0.031771,0.000983,0.560490,0.548964,0.531543,0.521664,3.696750
0.327500,0.001510,0.000792,0.503267,0.074575,-0.306587,0.056114,-0.005363,0.003014,-0.006541,0.531558,0.542299,0.550008,0.564994,3.696725
0.330000,0.001541,0.000880,0.496765,-0.151424,0.125336,0.040879,-0.015865,-0.010829,0.005787,0.588222,0.558287,0.553205,0.578166,3.696700
0.332500,0.001474,0.000931,0.494550,0.258470,-0.512548,0.036490,-0.016017,-0.006007,-0.012463,0.562738,0.578681,0.557673,0.544122,3.696675
0.335000,0.001517,0.000937,0.506844,-0.106294,-0.941475,0.037977,-0.006240,0.009235,-0.005167,0.566517,0.516749,0.573927,0.541403,3.696650
0.337500,0.001530,0.000889,0.496643,-0.391891,-0.057430,0.027783,-0.004144,0.001837,-0.020591,0.518733,0.554648,0.526070,0.533492,3.696625
0.340000,0.001557,0.001076,0.504478,-0.535980,0.645204,0.026658,-0.010421,0.024787,0.001999,0.558456,0.563985,0.529920,0.548937,3.696600
0.342500,0.001432,0.001135,0.498155,0.202596,-0.682128,0.041736,-0.012126,0.030896,0.004214,0.552147,0.532740,0.558548,0.553305,3.696575
0.345000,0.001485,0.001172,0.495702,-1.166047,-0.794659,0.043815,-0.030688,0.013126,-0.008211,0.554118,0.535199,0.579201,0.565593,3.696550
0.347500,0.001528,0.001216,0.510141,-0.470865,-0.348840,0.029184,0.018603,0.013488,-0.011355,0.517960,0.526393,0.565841,0.556189,3.696525
0.350000,0.001655,0.001232,0.505720,0.037954,0.583017,0.034339,0.005309,0.022545,0.012623,0.510973,0.549696,0.569470,0.559480,3.696500
0.352500,0.001606,0.001251,0.501945,0.638598,0.365490,0.034810,-0.032860,0.046536,-0.007009,0.543674,0.544369,0.538470,0.582234,3.696475
0.355000,0.001392,0.001301,0.502438,0.331373,0.352681,0.029242,0.000696,0.018507,0.000058,0.584689,0.536120,0.586861,0.586065,3.696450
0.357500,0.001523,0.001123,0.504099,-0.065205,0.286788,0.039886,-0.006966,0.001409,0.008449,0.520772,0.528834,0.536613,0.562083,3.696425
0.360000,0.001498,0.001097,0.493720,0.131286,-0.018978,0.053865,0.011905,0.002951,-0.002984,0.537229,0.558649,0.567655,0.550266,3.696400
0.362500,0.001625,0.001068,0.495750,-0.024883,0.468576,0.045941,-0.039116,-0.012456,0.010527,0.541823,0.550505,0.537932,0.564351,3.696375
0.365000,0.001557,0.001031,0.506935,-0.088285,0.945351,0.035487,-0.034011,0.022192,0.003894,0.518412,0.586069,0.564641,0.553657,3.696350
0.367500,0.001418,0.001127,0.502813,0.583990,0.799381,0.003627,-0.013353,-0.008281,-0.006569,0.551107,0.527185,0.570694,0.548441,3.696325
0.370000,0.001252,0.001364,0.507828,0.325058,-0.235985,0.007946,0.030321,-0.000496,-0.008331,0.562446,0.537675,0.556670,0.541511,3.696300
0.372500,0.001307,0.001237,0.498102,-0.979233,0.331893,0.019704,0.007411,-0.023163,-0.009230,0.538720,0.595587,0.525882,0.539793,3.696275
0.375000,0.001174,0.001147,0.498453,-0.090481,0.160638,-0.000996,0.006629,-0.025811,0.001077,0.544318,0.556015,0.526975,0.560246,3.696250
0.377500,0.001109,0.001139,0.495805,-0.159399,0.037790,-0.001845,0.009150,0.000996,0.015535,0.552591,0.542927,0.572150,0.568969,3.696225
0.380000,0.001169,0.001063,0.503169,-0.439244,0.000921,0.007418,-0.001951,0.006772,-0.017032,0.571167,0.557749,0.520968,0.565425,3.696200
0.382500,0.001152,0.001292,0.497704,-0.680819,0.256891,0.000234,-0.007414,-0.024786,-0.005648,0.546909,0.522238,0.544043,0.563011,3.696175
0.385000,0.001003,0.001286,0.505313,0.129363,0.173782,0.014411,-0.024930,0.007689,0.001894,0.540201,0.573593,0.562564,0.568698,3.696150
0.387500,0.000906,0.001174,0.498238,0.230900,0.429592,0.021610,0.002070,-0.052140,-0.006396,0.490398,0.592028,0.577501,0.565313,3.696125
0.390000,0.000922,0.001249,0.504437,-0.316894,1.301347,0.011792,0.018140,-0.022582,-0.006025,0.543144,0.551421,0.548462,0.530586,3.696100
0.392500,0.000875,0.001241,0.505010,-0.708500,-0.906517,-0.006525,-0.040115,0.003525,-0.000949,0.558708,0.545931,0.537063,0.520454,3.696075
0.395000,0.001041,0.001228,0.508068,0.782046,-0.889513,-0.016818,-0.003345,0.007183,-0.009150,0.561463,0.532345,0.585755,0.558690,3.696050
0.397500,0.001048,0.001209,0.513260,0.412767,-0.029900,-0.023337,0.013521,-0.005486,-0.007685,0.575453,0.551122,0.542238,0.561352,3.696025
0.400000,0.001066,0.001209,0.497484,0.305914,-0.719860,-0.032916,0.000692,0.038608,-0.002145,0.548260,0.532816,0.539435,0.518923,3.696000
0.402500,0.001048,0.001103,0.503295,0.752623,0.434726,-0.028859,0.005925,0.031541,-0.017554,0.523004,0.536523,0.569560,0.524328,3.695975
0.405000,0.001154,0.001012,0.491572,0.066717,-0.545695,-0.040028,-0.024909,0.015312,-0.008022,0.553447,0.562700,0.552174,0.505710,3.695950
0.407500,0.001105,0.000786,0.503376,0.599697,-0.027252,-0.048745,0.001777,0.001965,0.001187,0.583582,0.589186,0.555359,0.569693,3.695925
0.410000,0.001001,0.001107,0.497271,0.084034,-0.404503,-0.048179,0.042579,0.004227,-0.003021,0.547122,0.567978,0.569187,0.560037,3.695900
0.412500,0.000964,0.001062,0.498997,-0.528665,-0.441622,-0.043463,0.028942,-0.025055,-0.007968,0.524370,0.555393,0.528920,0.547962,3.695875
0.415000,0.001011,0.001002,0.506784,0.514028,-0.071037,-0.043841,-0.017353,-0.011513,-0.003684,0.537171,0.556394,0.523802,0.516180,3.695850
0.417500,0.000960,0.000957,0.505097,-0.683515,0.677549,-0.049089,0.021179,-0.023515,0.004617,0.583395,0.586574,0.581872,0.548435,3.695825
0.420000,0.000961,0.000919,0.503128,0.184515,0.057448,-0.031620,0.012124,-0.015283,0.002786,0.571782,0.549007,0.563749,0.576166,3.695800
0.422500,0.001030,0.001091,0.496029,-0.870929,-0.449977,-0.040989,0.026782,0.055144,0.000770,0.551476,0.575042,0.528488,0.554852,3.695775
0.425000,0.001218,0.000877,0.498407,1.013588,-0.091908,-0.042762,-0.033142,-0.005382,-0.001316,0.535869,0.545617,0.551815,0.577966,3.695750
0.427500,0.001163,0.000783,0.499066,0.088106,-0.399627,-0.052133,-0.022662,0.042637,-0.002296,0.587735,0.575959,0.543923,0.550057,3.695725
0.430000,0.001288,0.000788,0.504921,-0.490294,0.429995,-0.056610,0.023343,-0.002558,-0.014616,0.541127,0.534098,0.563675,0.593267,3.695700
0.432500,0.001147,0.000904,0.498844,0.223622,0.529520,-0.056393,0.013725,0.026191,0.004807,0.526759,0.508058,0.541425,0.549622,3.695675
0.435000,0.001235,0.000795,0.504646,0.376181,0.278986,-0.076063,-0.016977,0.016060,-0.002710,0.571934,0.524608,0.568861,0.577089,3.695650
0.437500,0.001266,0.000725,0.493415,-0.392804,0.670213,-0.092199,-0.006691,-0.010464,-0.005383,0.547018,0.570922,0.580712,0.568643,3.695625
0.440000,0.001180,0.000662,0.505376,0.064241,0.541800,-0.070749,0.022774,-0.012291,0.001602,0.535502,0.536366,0.586131,0.582312,3.695600
0.442500,0.001336,0.000700,0.496515,-0.198084,0.117751,-0.056428,-0.023599,0.020288,0.017371,0.562307,0.518584,0.510925,0.543954,3.695575
0.445000,0.001257,0.000676,0.496510,-0.243124,-0.047057,-0.059944,0.008012,-0.010663,0.008855,0.544711,0.561068,0.526206,0.540408,3.695550
0.447500,0.001363,0.000554,0.498130,-0.303748,0.140327,-0.050433,0.011454,-0.017700,0.002925,0.559868,0.544560,0.562970,0.543277,3.695525
0.450000,0.001523,0.000493,0.503612,0.460569,0.221852,-0.047739,0.009876,-0.033627,0.023219,0.571683,0.569101,0.530805,0.570879,3.695500
0.452500,0.001729,0.000496,0.507537,0.974072,0.002972,-0.027665,-0.023621,0.000801,0.007803,0.545642,0.568649,0.534170,0.541333,3.695475
0.455000,0.001838,0.000645,0.492327,0.254655,1.005019,-0.039928,0.016160,0.004305,-0.010866,0.514079,0.564107,0.574796,0.539297,3.695450
0.457500,0.001788,0.000490,0.497481,-0.069402,-0.359596,-0.044248,0.016074,-0.019916,0.008334,0.586937,0.532955,0.518558,0.556142,3.695425
0.460000,0.001820,0.000431,0.500563,-0.670044,0.212871,-0.082527,-0.000041,-0.009749,-0.015191,0.543818,0.562190,0.565701,0.527972,3.695400
0.462500,0.001989,0.000292,0.507224,0.911993,-0.338624,-0.063007,-0.010702,-0.003044,-0.003030,0.557809,0.524927,0.538751,0.573446,3.695375
0.465000,0.001977,0.000257,0.501546,-0.580704,0.557789,-0.072839,0.017564,-0.005511,0.012913,0.566750,0.562765,0.534941,0.568462,3.695350
0.467500,0.002083,0.000399,0.501240,-0.311272,-0.343841,-0.072992,0.072579,0.032327,-0.007653,0.545859,0.557922,0.587538,0.555076,3.695325
0.470000,0.002187,0.000385,0.497026,-0.230755,-0.017465,-0.066990,-0.002391,0.020824,-0.012341,0.547496,0.528291,0.533786,0.550289,3.695300
0.472500,0.002263,0.000403,0.497744,1.330718,-0.945434,-0.063777,-0.018869,0.010860,0.012145,0.561428,0.584598,0.547935,0.555456,3.695275
0.475000,0.002122,0.000422,0.491342,-0.832122,-0.068604,-0.052986,-0.017244,-0.019188,-0.001764,0.559114,0.553050,0.537205,0.553626,3.695250
0.477500,0.002189,0.000330,0.497826,0.840039,0.048918,-0.068340,-0.004137,0.014861,-0.003474,0.570010,0.548997,0.556201,0.575628,3.695225
0.480000,0.002267,0.000191,0.505012,0.210065,-0.098912,-0.054844,-0.010277,-0.000021,-0.006944,0.554254,0.590893,0.554178,0.545297,3.695200
0.482500,0.002300,0.000296,0.491694,0.675821,0.236739,-0.068536,-0.024418,0.003679,-0.024434,0.541286,0.556785,0.547346,0.537004,3.695175
0.485000,0.002161,0.000164,0.496802,1.131911,-0.234714,-0.069739,0.002004,-0.024664,-0.014806,0.579465,0.548043,0.542089,0.547888,3.695150
0.487500,0.002231,0.000121,0.497281,0.035515,-0.145154,-0.088962,0.000064,0.037531,0.003554,0.572613,0.574084,0.569821,0.551286,3.695125
0.490000,0.002196,0.000045,0.493871,-0.097531,0.635547,-0.099305,-0.016746,0.018935,-0.006217,0.543084,0.541400,0.559442,0.536882,3.695100
0.492500,0.002099,0.000070,0.502192,-0.060600,0.367544,-0.103499,-0.007049,0.017645,-0.008174,0.550632,0.574348,0.567992,0.535957,3.695075
0.495000,0.002159,-0.000034,0.504643,0.153048,0.294140,-0.092641,0.023842,-0.041973,-0.008329,0.558274,0.552305,0.558130,0.563978,3.695050
0.497500,0.002152,0.000026,0.498523,-0.517704,0.013549,-0.070067,0.006633,0.019211,-0.003971,0.560309,0.569266,0.575354,0.532757,3.695025
0.500000,0.002105,-0.000002,0.492519,-0.011419,-0.761368,-0.086542,-0.030980,-0.007983,0.001577,0.547337,0.531031,0.561612,0.556353,3.695000
0.502500,0.002048,-0.000145,0.499727,-0.304111,0.263530,-0.087940,-0.007717,0.029879,0.003919,0.545138,0.547539,0.541175,0.567772,3.694975
0.505000,0.001946,-0.000142,0.506844,-0.154515,-0.663140,-0.076908,0.020238,-0.028053,-0.007988,0.561525,0.583224,0.549311,0.534382,3.694950
0.507500,0.001956,-0.000144,0.501431,0.441921,-0.687248,-0.083557,0.022402,-0.007619,-0.005434,0.554324,0.569146,0.569927,0.559487,3.694925
0.510000,0.001956,-0.000101,0.499764,0.018761,0.428342,-0.085670,-0.001261,0.019476,0.025195,0.552054,0.559762,0.546372,0.549032,3.694900
0.512500,0.001926,-0.000230,0.488737,-0.195662,0.589627,-0.083744,0.008755,-0.014370,-0.002789,0.531336,0.562931,0.552118,0.533022,3.694875
0.515000,0.001888,-0.000404,0.498627,0.223828,0.183211,-0.069806,-0.047906,0.024118,-0.011413,0.533268,0.517647,0.575365,0.561861,3.694850
0.517500,0.001761,-0.000396,0.497433,-0.625916,-0.658334,-0.067607,-0.001176,0.038890,0.014649,0.542621,0.558240,0.565088,0.528985,3.694825
0.520000,0.001652,-0.000497,0.500602,0.559583,-0.475051,-0.052701,0.000795,0.017252,-0.008660,0.553851,0.549122,0.589221,0.538757,3.694800
0.522500,0.001679,-0.000577,0.498777,-0.218394,-0.749001,-0.039358,-0.001303,-0.014837,-0.012641,0.553483,0.559637,0.535636,0.563213,3.694775
0.525000,0.001605,-0.000626,0.499331,0.104446,-0.480016,-0.040030,0.018086,-0.016848,0.001783,0.541750,0.572333,0.546011,0.544674,3.694750
0.527500,0.001602,-0.000523,0.499665,0.860494,-0.004387,-0.035705,-0.003227,0.028803,0.007920,0.522548,0.527140,0.502407,0.573349,3.694725
0.530000,0.001714,-0.000436,0.498811,0.229995,-1.327449,-0.044067,0.004141,0.007074,-0.001159,0.545041,0.498012,0.545254,0.542019,3.694700
0.532500,0.001846,-0.000368,0.495760,1.483415,-0.209742,-0.067272,0.000522,0.003381,0.001459,0.567317,0.560128,0.551730,0.533980,3.694675
0.535000,0.001742,-0.000443,0.499876,-0.300422,-0.567957,-0.061392,-0.013684,-0.000738,-0.000183,0.561134,0.524133,0.552232,0.569321,3.694650
0.537500,0.001764,-0.000389,0.507208,-0.522239,-0.774230,-0.071398,0.050150,-0.019395,-0.009499,0.535587,0.559428,0.542042,0.537815,3.694625
0.540000,0.001683,-0.000465,0.495808,0.058797,-0.333876,-0.076331,0.032614,0.019532,-0.010000,0.541700,0.527095,0.530056,0.509950,3.694600
0.542500,0.001780,-0.000401,0.501719,-0.340188,-0.586255,-0.093125,-0.000056,-0.010334,0.019554,0.511250,0.570902,0.589951,0.566538,3.694575
0.545000,0.001772,-0.000346,0.498910,0.190374,0.307647,-0.111129,0.005936,-0.056612,-0.000105,0.534380,0.539566,0.583357,0.560547,3.694550
0.547500,0.001819,-0.000259,0.502342,-0.187824,0.088994,-0.134933,0.012579,-0.006132,0.005395,0.532923,0.542408,0.558346,0.572190,3.694525
0.550000,0.001844,-0.000219,0.502932,0.501187,-0.144417,-0.140139,0.015106,-0.020154,0.006007,0.588452,0.546004,0.521422,0.558598,3.694500
0.552500,0.001753,-0.000224,0.498818,-1.157603,0.185242,-0.134172,0.027626,-0.022888,0.007016,0.536293,0.520424,0.537369,0.580748,3.694475
0.555000,0.001807,-0.000080,0.498330,-0.027488,-0.691132,-0.131413,-0.004019,0.008294,-0.000022,0.552826,0.572754,0.510690,0.546435,3.694450
0.557500,0.001751,-0.000121,0.510988,0.061562,0.484148,-0.147506,0.007047,-0.023904,0.001955,0.567101,0.596444,0.534778,0.549811,3.694425
0.560000,0.001508,-0.000152,0.499256,-0.204079,0.759555,-0.155453,0.004579,-0.039336,0.002200,0.570061,0.555982,0.551418,0.580644,3.694400
0.562500,0.001628,-0.000085,0.496438,-0.617042,0.127239,-0.151505,-0.001563,0.016863,-0.025336,0.537354,0.538386,0.537049,0.534275,3.694375
0.565000,0.001784,0.000024,0.495538,-0.708533,0.383554,-0.132714,0.023266,0.019335,0.004383,0.579601,0.531360,0.550746,0.565308,3.694350
0.567500,0.001691,0.000071,0.502961,0.030314,0.080205,-0.130879,0.039164,-0.022456,0.016201,0.534515,0.562909,0.579692,0.558206,3.694325
0.570000,0.001845,0.000184,0.499736,0.125742,-0.165968,-0.109664,-0.012530,-0.000137,-0.012750,0.545716,0.529185,0.574330,0.550815,3.694300
0.572500,0.001756,0.000191,0.505668,-0.367095,-0.434883,-0.101764,0.024689,0.016545,0.002624,0.545669,0.546061,0.587209,0.572823,3.694275
0.575000,0.001746,0.000002,0.500493,0.406314,-0.461231,-0.112561,-0.015535,-0.010074,0.010026,0.544573,0.577961,0.533370,0.573773,3.694250
0.577500,0.001634,-0.000136,0.502738,-0.652817,0.522946,-0.114568,-0.008141,0.007978,0.003769,0.598800,0.555571,0.582314,0.564294,3.694225
0.580000,0.001516,-0.000018,0.510526,-0.307730,-0.288627,-0.117263,0.023591,0.002113,-0.014221,0.570482,0.540988,0.562579,0.546119,3.694200
0.582500,0.001542,0.000076,0.490468,-0.028854,0.285262,-0.103598,-0.013893,-0.007813,-0.010307,0.543401,0.542094,0.558838,0.565411,3.694175
0.585000,0.001448,0.000030,0.498260,0.889763,0.120669,-0.114286,-0.010334,0.034045,0.003267,0.537170,0.567264,0.547585,0.541619,3.694150
0.587500,0.001459,0.000073,0.498585,-0.205453,-0.649929,-0.111395,-0.006581,-0.025686,-0.009124,0.527854,0.554708,0.567943,0.507592,3.694125
0.590000,0.001388,-0.000038,0.499855,0.234606,-0.279345,-0.099415,0.020079,-0.003430,0.011656,0.525505,0.563138,0.522508,0.571175,3.694100
0.592500,0.001245,0.000274,0.506886,-0.232477,0.162968,-0.085819,0.012925,0.003409,-0.009256,0.551891,0.558114,0.577742,0.533737,3.694075
0.595000,0.001092,0.000069,0.499098,0.709019,0.414247,-0.068192,-0.000900,0.020508,-0.014247,0.563601,0.588864,0.583782,0.579941,3.694050
0.597500,0.001084,0.000213,0.500753,0.153645,0.332238,-0.079046,-0.010062,0.017815,0.021239,0.593363,0.551461,0.559492,0.568355,3.694025
0.600000,0.001005,0.000250,0.500888,0.078840,0.130689,-0.078009,0.012989,0.000991,0.003587,0.513759,0.547391,0.542544,0.534078,3.694000
0.602500,0.000987,0.000156,0.497288,-0.611247,0.349412,-0.074347,0.027639,-0.010302,0.000666,0.580581,0.556706,0.544623,0.559628,3.693975
0.605000,0.000968,0.000064,0.503004,-0.803545,-0.630937,-0.072084,-0.004899,0.025929,-0.001246,0.523560,0.594317,0.542603,0.566482,3.693950
0.607500,0.000898,-0.000007,0.495544,0.290753,0.068482,-0.061837,-0.019189,0.012865,-0.016713,0.531554,0.556015,0.580311,0.527587,3.693925
0.610000,0.000907,-0.000267,0.494484,0.121232,-0.540408,-0.072960,-0.031928,-0.011277,0.007017,0.582876,0.553282,0.581292,0.567573,3.693900
0.612500,0.000944,-0.000110,0.503032,-0.344712,0.114423,-0.068703,0.010278,-0.008700,-0.001377,0.574345,0.510232,0.553504,0.541407,3.693875
0.615000,0.001001,-0.000212,0.496471,0.123452,0.000046,-0.070646,0.015277,0.001283,0.006874,0.556919,0.544983,0.550828,0.570103,3.693850
0.617500,0.001165,-0.000102,0.501170,-0.477561,0.452119,-0.035354,0.013025,-0.012263,-0.003966,0.567513,0.538112,0.553772,0.540023,3.693825
0.620000,0.001201,0.000010,0.496461,-0.687297,0.011715,-0.026333,0.013558,-0.002850,-0.003344,0.566398,0.547818,0.554047,0.546638,3.693800
0.622500,0.001085,0.000046,0.500932,-0.107481,0.129371,-0.028400,0.000684,-0.017294,-0.017177,0.512565,0.571144,0.560248,0.550042,3.693775
0.625000,0.000993,0.000031,0.498661,0.678601,-0.277126,-0.025424,0.011563,0.018167,0.005185,0.557926,0.514000,0.554327,0.539124,3.693750
0.627500,0.000922,-0.000046,0.502946,-0.023599,-0.355341,-0.014201,0.016527,0.021852,-0.006183,0.549094,0.572663,0.588808,0.505870,3.693725
0.630000,0.000898,-0.000136,0.508112,-0.027278,-0.413534,-0.021885,-0.008720,-0.003903,-0.001321,0.546058,0.564110,0.518560,0.525050,3.693700
0.632500,0.000931,-0.000179,0.499868,0.307306,-0.044531,-0.037638,-0.016432,-0.019998,-0.002713,0.541543,0.587369,0.544656,0.541444,3.693675
0.635000,0.000888,-0.000275,0.494230,0.785339,-0.341959,-0.044860,-0.026463,0.019101,0.010094,0.543868,0.530420,0.517373,0.517467,3.693650
0.637500,0.000861,-0.000426,0.496960,0.608470,-0.469256,-0.058140,-0.008846,0.026678,0.004454,0.536165,0.538969,0.556309,0.572985,3.693625
0.640000,0.000925,-0.000545,0.498946,0.026880,0.220386,-0.065751,-0.017050,-0.029005,0.001710,0.538396,0.532325,0.525203,0.557770,3.693600
0.642500,0.000826,-0.000449,0.499343,-0.234850,-0.425934,-0.061575,-0.013857,-0.005340,0.005821,0.561593,0.555897,0.563954,0.552961,3.693575
0.645000,0.001025,-0.000733,0.502774,-0.901253,0.075810,-0.074068,-0.002395,-0.019626,-0.018581,0.524430,0.577015,0.556065,0.559488,3.693550
0.647500,0.001136,-0.000675,0.499608,0.874803,-0.992601,-0.062596,0.018954,0.004248,-0.004209,0.544159,0.543190,0.565031,0.547488,3.693525
0.650000,0.001270,-0.000812,0.496936,0.803533,0.426000,-0.050436,0.014697,-0.023637,-0.006635,0.577668,0.543798,0.542114,0.573750,3.693500
0.652500,0.001230,-0.000746,0.501634,-0.218773,0.667035,-0.054594,-0.001046,0.006425,0.013464,0.584778,0.518664,0.553176,0.531372,3.693475
0.655000,0.001306,-0.000980,0.503045,0.291496,-0.634758,-0.052939,-0.024037,0.007958,0.010347,0.565258,0.548458,0.561393,0.534940,3.693450
0.657500,0.001338,-0.000829,0.495682,0.720178,-0.062847,-0.056309,0.007240,0.025689,-0.007506,0.558353,0.546495,0.547991,0.546648,3.693425
0.660000,0.001558,-0.000882,0.505822,0.131037,0.125458,-0.062402,-0.008734,-0.031938,-0.001761,0.552299,0.516666,0.533961,0.556887,3.693400
0.662500,0.001390,-0.000903,0.496277,0.548027,-0.632585,-0.070243,-0.031407,-0.013980,0.003522,0.574408,0.565032,0.547015,0.509406,3.693375
0.665000,0.001458,-0.000857,0.500923,-0.094005,0.366323,-0.073079,0.015824,0.021434,-0.000342,0.560415,0.550590,0.537502,0.526742,3.693350
0.667500,0.001621,-0.000857,0.507254,-0.853307,0.526050,-0.083946,0.012310,0.024364,0.003551,0.567211,0.527847,0.559245,0.545325,3.693325
0.670000,0.001643,-0.000908,0.500731,0.655437,-0.469266,-0.084234,-0.000661,0.035305,-0.006490,0.543762,0.518225,0.525903,0.558722,3.693300
0.672500,0.001752,-0.000919,0.508542,0.034396,0.851526,-0.096511,-0.000166,-0.010340,-0.010365,0.532968,0.550338,0.528210,0.552485,3.693275
0.675000,0.001679,-0.000848,0.489786,-0.139144,0.338229,-0.093262,0.003621,0.016533,-0.005392,0.577247,0.527130,0.556762,0.520753,3.693250
0.677500,0.001631,-0.000911,0.503766,0.338816,-0.369546,-0.100915,0.003324,0.005513,-0.004586,0.525638,0.554455,0.530727,0.548321,3.693225
0.680000,0.001636,-0.000945,0.505480,-0.372051,0.715408,-0.100000,-0.011265,-0.019252,-0.000453,0.566209,0.573335,0.539559,0.546324,3.693200
0.682500,0.001729,-0.000868,0.509175,0.444330,-0.722138,-0.106640,-0.017111,0.040237,0.001574,0.554580,0.532394,0.561712,0.573411,3.693175
0.685000,0.001782,-0.000920,0.495188,1.056716,-0.187915,-0.101470,0.017583,0.013671,-0.000841,0.526271,0.556262,0.571238,0.549671,3.693150
0.687500,0.001797,-0.000969,0.502557,-0.879490,0.212579,-0.096769,0.015352,0.009919,-0.009671,0.547541,0.564544,0.536838,0.564937,3.693125
0.690000,0.001735,-0.001075,0.497819,-0.013592,0.356234,-0.098020,-0.010666,0.016415,-0.005528,0.534567,0.536577,0.545782,0.605136,3.693100
0.692500,0.001661,-0.001090,0.494791,-0.129490,-0.546677,-0.105965,-0.003641,0.004497,0.006304,0.514353,0.596403,0.574329,0.548441,3.693075
0.695000,0.001699,-0.001061,0.505208,0.076154,0.120985,-0.105341,-0.009491,-0.005981,0.025716,0.534656,0.547705,0.546433,0.541496,3.693050
0.697500,0.001788,-0.000984,0.496506,-0.258425,-0.754060,-0.111981,-0.012525,-0.015675,-0.010502,0.548897,0.559796,0.561357,0.536203,3.693025
0.700000,0.001631,-0.000824,0.498036,-0.069259,0.115667,-0.109157,0.012039,0.043070,0.004772,0.552807,0.539880,0.575670,0.521743,3.693000
0.702500,0.001763,-0.000867,0.499688,0.919329,0.644072,-0.115241,0.007832,0.013795,-0.013810,0.569898,0.526443,0.526917,0.578703,3.692975
0.705000,0.001683,-0.001015,0.500263,0.415880,0.160614,-0.110239,0.022762,-0.013597,-0.011502,0.558476,0.559198,0.541338,0.557210,3.692950
0.707500,0.001828,-0.001075,0.513371,0.057744,0.333706,-0.117207,-0.020414,-0.005199,-0.003313,0.574694,0.564053,0.523537,0.525745,3.692925
0.710000,0.001843,-0.001172,0.498074,0.200247,0.085642,-0.112643,0.022344,0.000143,0.000355,0.559289,0.567617,0.551747,0.560167,3.692900
0.712500,0.001900,-0.001270,0.495616,1.058290,-0.045023,-0.102135,-0.031622,0.020975,-0.019277,0.593947,0.542571,0.531211,0.509441,3.692875
0.715000,0.002132,-0.001184,0.500655,-0.633430,0.408674,-0.106641,-0.024559,0.051378,-0.014506,0.568981,0.546009,0.553008,0.528046,3.692850
0.717500,0.002143,-0.001148,0.503082,-0.137922,0.345920,-0.100326,0.033393,0.021506,-0.010300,0.568578,0.553508,0.519863,0.536022,3.692825
0.720000,0.002223,-0.001331,0.503214,0.621415,0.197379,-0.087812,-0.013492,0.014654,0.011997,0.523402,0.560681,0.545807,0.586899,3.692800
0.722500,0.002349,-0.001243,0.501310,0.730626,0.330355,-0.068319,0.003292,-0.027659,0.006747,0.579751,0.543458,0.565347,0.564931,3.692775
0.725000,0.002194,-0.001236,0.498497,-0.115486,0.186730,-0.052511,-0.007928,-0.015513,0.001241,0.543029,0.542724,0.539483,0.577627,3.692750
0.727500,0.002404,-0.001268,0.505037,0.108157,0.831674,-0.044367,-0.004932,0.031712,0.010347,0.550742,0.557933,0.544765,0.541065,3.692725
0.730000,0.002339,-0.001206,0.498560,0.495055,-0.623251,-0.055106,0.009003,-0.031098,0.001754,0.581729,0.573673,0.572176,0.565844,3.692700
0.732500,0.002201,-0.001366,0.504345,-0.726105,0.142130,-0.055455,0.004321,0.004957,0.010609,0.520399,0.558372,0.535107,0.573278,3.692675
0.735000,0.002083,-0.001285,0.503594,0.536201,-0.213733,-0.052387,-0.006333,-0.008653,0.006606,0.551034,0.582547,0.551728,0.563103,3.692650
0.737500,0.001971,-0.001393,0.503443,-0.429395,-0.061483,-0.057208,0.003029,0.022568,0.010412,0.552195,0.548277,0.547434,0.520547,3.692625
0.740000,0.002034,-0.001368,0.497940,0.025444,0.162631,-0.073186,0.005770,-0.013191,-0.001327,0.588617,0.521321,0.549790,0.530183,3.692600
0.742500,0.001922,-0.001394,0.502473,0.430659,0.558306,-0.060446,-0.015305,0.035418,0.008746,0.523104,0.556618,0.552072,0.513699,3.692575
0.745000,0.002069,-0.001378,0.498573,-0.600832,0.225902,-0.042851,0.040757,-0.037711,-0.010897,0.521329,0.557185,0.527725,0.542805,3.692550
0.747500,0.002050,-0.001228,0.500153,-0.618268,-0.514564,-0.043628,-0.015872,0.015659,0.015063,0.569659,0.553368,0.542209,0.528178,3.692525
0.750000,0.001834,-0.001346,0.507313,0.469118,0.263568,-0.045653,-0.006131,0.007548,0.019700,0.573105,0.547527,0.541475,0.553173,3.692500
0.752500,0.001876,-0.001464,0.495974,-0.429300,0.498091,-0.055362,-0.000317,-0.030178,-0.010211,0.524707,0.577321,0.587097,0.572229,3.692475
0.755000,0.001973,-0.001369,0.497199,-0.979414,-0.419387,-0.048607,0.009214,-0.025681,-0.014585,0.530341,0.572672,0.562504,0.561793,3.692450
0.757500,0.001983,-0.001323,0.491946,0.943002,0.345718,-0.051240,-0.001372,0.014602,0.002531,0.534976,0.538940,0.569382,0.587676,3.692425
0.760000,0.001938,-0.001379,0.503911,0.105501,0.178126,-0.036746,-0.005332,0.002647,-0.003479,0.533724,0.556364,0.541585,0.546438,3.692400
0.762500,0.002049,-0.001280,0.495140,-0.184574,0.169115,-0.041297,-0.006496,0.016344,-0.008217,0.567255,0.540627,0.560355,0.528405,3.692375
0.765000,0.002109,-0.001424,0.495432,-0.632173,0.152640,-0.044216,-0.037188,0.020352,-0.015514,0.568256,0.550536,0.571811,0.526422,3.692350
0.767500,0.002214,-0.001354,0.504195,0.136974,-0.448310,-0.049008,0.007496,-0.022209,-0.004378,0.526635,0.543314,0.520364,0.550301,3.692325
0.770000,0.002171,-0.001383,0.498846,0.001524,-0.141867,-0.040251,-0.026668,0.023863,-0.010408,0.501952,0.541103,0.562702,0.543226,3.692300
0.772500,0.002244,-0.001433,0.498888,-0.719401,0.616777,-0.040280,0.022997,-0.015724,0.012300,0.577420,0.539348,0.513535,0.551695,3.692275
0.775000,0.002317,-0.001400,0.499126,0.010699,-0.209255,-0.036321,-0.007143,-0.018277,-0.013853,0.554061,0.539477,0.534028,0.597478,3.692250
0.777500,0.002375,-0.001364,0.503338,0.291823,0.147933,-0.021235,-0.003317,0.015051,-0.002225,0.561496,0.563099,0.540577,0.553973,3.692225
0.780000,0.002380,-0.001268,0.493123,-0.371573,-0.150769,-0.020137,0.013838,-0.021130,0.004062,0.539281,0.576298,0.564220,0.568744,3.692200
0.782500,0.002323,-0.001230,0.499475,-1.165805,0.034337,-0.026795,0.006794,0.001540,-0.003931,0.551360,0.557216,0.514142,0.534501,3.692175
0.785000,0.002300,-0.001170,0.502162,-0.070249,-0.541609,-0.025588,-0.030458,0.024751,0.002868,0.578199,0.578023,0.556822,0.544472,3.692150
0.787500,0.002434,-0.001179,0.506002,0.519901,-0.271984,-0.023307,0.042495,0.008940,0.009954,0.532503,0.529373,0.567609,0.558927,3.692125
0.790000,0.002364,-0.001214,0.504508,-0.057422,-0.039621,-0.025980,-0.013343,0.034643,-0.052255,0.575445,0.570271,0.538815,0.555583,3.692100
0.792500,0.002755,-0.001150,0.487837,0.617781,0.881582,-0.032117,-0.000992,-0.002200,-0.008400,0.512563,0.557454,0.536250,0.552816,3.692075
0.795000,0.002752,-0.001100,0.498930,0.307014,-0.026537,-0.036418,-0.010688,-0.002959,-0.000491,0.565462,0.543916,0.566641,0.542796,3.692050
0.797500,0.002767,-0.001052,0.495396,0.119873,0.594371,-0.053789,0.017420,0.034283,-0.013742,0.529792,0.569287,0.556052,0.524490,3.692025
0.800000,0.002530,-0.001179,0.502019,0.084184,-0.646781,-0.070201,0.020337,-0.016423,-0.006630,0.573652,0.560987,0.535619,0.561745,3.692000
0.802500,0.002620,-0.001034,0.490520,-0.860219,0.529908,-0.065585,-0.008684,-0.009359,-0.006953,0.565269,0.535270,0.549106,0.569907,3.691975
0.805000,0.002550,-0.000855,0.496539,0.664603,-0.152372,-0.072854,0.010716,-0.011272,-0.024066,0.531887,0.561047,0.532830,0.518146,3.691950
0.807500,0.002556,-0.000797,0.496629,0.323331,0.639209,-0.087722,0.004645,-0.017600,0.002513,0.558212,0.553596,0.581166,0.568922,3.691925
0.810000,0.002675,-0.000855,0.500731,-0.229176,0.210427,-0.079466,-0.016840,0.011916,-0.005700,0.527547,0.541063,0.555473,0.550377,3.691900
0.812500,0.002540,-0.000917,0.497048,-0.360786,1.335680,-0.085206,0.003393,0.006505,0.003393,0.549244,0.526763,0.579704,0.547401,3.691875
0.815000,0.002583,-0.000863,0.503291,-0.759305,0.079301,-0.086344,0.010508,0.006873,-0.006098,0.567784,0.563923,0.535139,0.523406,3.691850
0.817500,0.002699,-0.000953,0.505439,-0.178971,-0.320217,-0.083888,0.017856,0.011148,0.004621,0.569427,0.550595,0.524677,0.518583,3.691825
0.820000,0.002711,-0.001056,0.500056,-0.387866,0.265310,-0.082710,0.000596,0.001474,-0.010672,0.567981,0.540339,0.520832,0.553939,3.691800
0.822500,0.002711,-0.000985,0.496459,0.141469,-1.386433,-0.083662,0.005763,-0.026259,-0.009652,0.545900,0.512669,0.541906,0.550184,3.691775
0.825000,0.002582,-0.001220,0.505172,-0.566095,0.429423,-0.083267,0.015632,0.014448,-0.003907,0.578948,0.574044,0.547150,0.570006,3.691750
0.827500,0.002755,-0.001307,0.504336,0.035922,-0.150890,-0.083856,-0.006187,-0.030266,0.014043,0.579613,0.546153,0.517344,0.559979,3.691725
0.830000,0.002646,-0.001191,0.511227,0.081188,-0.497721,-0.088359,-0.035193,-0.003569,0.003250,0.528303,0.534945,0.550382,0.519760,3.691700
0.832500,0.002649,-0.001336,0.509300,0.437284,0.139694,-0.094846,0.037107,0.026823,-0.015521,0.569417,0.571968,0.544793,0.541458,3.691675
0.835000,0.002587,-0.001365,0.500578,0.023741,-0.753581,-0.092243,0.031276,0.009576,-0.007085,0.566485,0.548677,0.520772,0.562815,3.691650
0.837500,0.002564,-0.001492,0.500984,-0.037955,-0.587719,-0.096246,-0.018946,-0.040989,0.026263,0.550708,0.549485,0.528927,0.556901,3.691625
0.840000,0.002453,-0.001521,0.508978,0.697550,-0.043388,-0.111796,0.022753,0.003779,0.005310,0.566919,0.582001,0.552846,0.522186,3.691600
0.842500,0.002577,-0.001531,0.502651,0.452165,0.199602,-0.111037,-0.017716,-0.044771,-0.007436,0.557172,0.556147,0.548402,0.545998,3.691575
0.845000,0.002224,-0.001566,0.497324,-0.000521,-0.501240,-0.120182,-0.002661,0.021087,-0.008948,0.567028,0.537034,0.553788,0.547841,3.691550
0.847500,0.002214,-0.001551,0.498208,0.237983,-0.742358,-0.108170,-0.018996,-0.000675,-0.001862,0.537465,0.555085,0.570270,0.555347,3.691525
0.850000,0.002331,-0.001412,0.497070,0.237834,-0.801490,-0.090964,0.031194,0.001933,0.005466,0.565191,0.555627,0.559129,0.575298,3.691500
0.852500,0.002306,-0.001352,0.501470,0.550970,0.335273,-0.081252,0.000633,-0.019895,-0.015132,0.547650,0.535170,0.549618,0.534203,3.691475
0.855000,0.002310,-0.001317,0.502616,0.646751,1.327402,-0.083581,-0.000658,-0.000350,-0.007329,0.531131,0.540805,0.543081,0.543229,3.691450
0.857500,0.002330,-0.001325,0.497971,-0.527656,0.278728,-0.067256,0.023183,-0.006297,0.008918,0.543657,0.587501,0.528150,0.537331,3.691425
0.860000,0.002441,-0.001332,0.503109,-0.512456,0.402278,-0.059363,0.013090,-0.023514,-0.000661,0.533283,0.584791,0.569410,0.570132,3.691400
0.862500,0.002526,-0.001359,0.502352,-0.950017,0.057296,-0.056550,-0.013957,-0.019068,0.015154,0.566983,0.571590,0.557138,0.538037,3.691375
0.865000,0.002570,-0.001364,0.497376,0.498622,-0.670218,-0.043764,0.000538,0.014871,-0.005371,0.549904,0.566797,0.574608,0.539208,3.691350
0.867500,0.002550,-0.001254,0.497845,-0.370629,0.073543,-0.027676,-0.019674,0.013797,-0.011186,0.552091,0.545367,0.582987,0.557669,3.691325
0.870000,0.002518,-0.001271,0.508428,-0.297653,-0.949112,-0.023772,-0.010497,0.016808,-0.008585,0.547823,0.573924,0.557943,0.547292,3.691300
0.872500,0.002556,-0.001349,0.500624,-0.512677,0.406633,-0.011827,0.008892,0.009016,0.000393,0.528984,0.565066,0.555424,0.553811,3.691275
0.875000,0.002575,-0.001450,0.497705,0.064339,0.358587,-0.003218,0.014890,0.001258,-0.009789,0.589489,0.553373,0.576791,0.565825,3.691250
0.877500,0.002702,-0.001392,0.497310,1.015693,0.084448,-0.003339,0.014778,0.001642,0.003501,0.557279,0.549360,0.546262,0.532468,3.691225
0.880000,0.002636,-0.001386,0.506332,0.319679,-0.013590,-0.008438,-0.010008,-0.020485,0.011639,0.552913,0.544434,0.561245,0.555888,3.691200
0.882500,0.002774,-0.001410,0.506402,-0.008552,0.178057,-0.004989,-0.004741,0.005172,0.002664,0.558533,0.546237,0.523249,0.529598,3.691175
0.885000,0.002717,-0.001186,0.503727,0.474594,-0.364043,-0.013312,0.000914,0.033575,-0.014850,0.586448,0.530915,0.551643,0.544070,3.691150
0.887500,0.002870,-0.001249,0.492242,0.046676,-0.140290,-0.010155,-0.008808,0.015239,0.007886,0.576404,0.563939,0.535607,0.537474,3.691125
0.890000,0.002709,-0.001295,0.498872,-0.096483,0.153126,-0.001794,0.010016,0.013675,-0.000129,0.504478,0.534587,0.512852,0.563435,3.691100
0.892500,0.002791,-0.001262,0.499131,-0.195818,-0.850344,0.006359,-0.017227,0.013140,-0.006787,0.569568,0.525998,0.554532,0.558067,3.691075
0.895000,0.002824,-0.001236,0.500253,-0.629147,-0.064931,0.017745,-0.031778,0.008574,0.001829,0.617914,0.554244,0.531134,0.583316,3.691050
0.897500,0.002855,-0.001277,0.496310,-0.605564,0.436994,0.025223,0.018468,0.010842,0.008902,0.551377,0.572237,0.551984,0.576312,3.691025
0.900000,0.002756,-0.001228,0.501413,-0.335261,-0.108823,0.002810,0.010019,-0.010062,0.007215,0.514146,0.541192,0.530300,0.565119,3.691000
0.902500,0.002825,-0.001272,0.504536,0.278776,-0.062399,-0.000255,0.027687,-0.017369,0.008068,0.588083,0.516242,0.553063,0.592429,3.690975
0.905000,0.002891,-0.001295,0.498985,-0.179464,-0.294992,-0.002382,0.006745,-0.001141,-0.032744,0.531665,0.548843,0.530142,0.547815,3.690950
0.907500,0.002954,-0.001241,0.498526,-0.489753,-0.267314,-0.018066,-0.013093,0.004720,-0.027628,0.549960,0.529946,0.534025,0.540136,3.690925
0.910000,0.003003,-0.001326,0.496093,-0.767101,-0.545812,-0.005068,-0.007285,-0.000948,-0.007248,0.562727,0.554255,0.549450,0.543180,3.690900
0.912500,0.002984,-0.001418,0.498803,0.084875,-0.042080,0.001524,0.000342,0.009063,-0.008584,0.503620,0.548616,0.534591,0.523064,3.690875
0.915000,0.002941,-0.001415,0.501426,0.152157,-1.042059,0.016000,0.009374,-0.018053,-0.002763,0.563380,0.556225,0.540881,0.553070,3.690850
0.917500,0.002812,-0.001484,0.500779,0.678038,1.365021,0.012329,-0.013780,-0.033225,0.007357,0.552152,0.543161,0.521858,0.518548,3.690825
0.920000,0.002861,-0.001460,0.512758,0.399053,0.242183,0.016551,0.038758,-0.009292,0.016804,0.526739,0.553439,0.551564,0.572797,3.690800
0.922500,0.002795,-0.001349,0.498520,-0.153329,-0.581703,0.019608,0.029234,0.007870,0.004091,0.585363,0.512004,0.544065,0.522390,3.690775
0.925000,0.002578,-0.001449,0.510843,-0.398796,-0.262566,0.034213,0.002454,0.012635,-0.006507,0.554954,0.536680,0.540743,0.548452,3.690750
0.927500,0.002572,-0.001471,0.496395,-0.196029,0.162753,0.032352,-0.024044,-0.024422,0.000349,0.563326,0.543637,0.533812,0.552305,3.690725
0.930000,0.002562,-0.001290,0.499212,0.636953,-0.088792,0.025553,-0.013189,-0.003915,-0.012388,0.576650,0.536528,0.532923,0.571273,3.690700
0.932500,0.002374,-0.001324,0.502765,0.173520,-0.420192,0.022202,-0.006747,-0.007409,-0.005610,0.525527,0.563903,0.586140,0.529098,3.690675
0.935000,0.002252,-0.001331,0.496368,-0.198799,0.241892,0.022255,-0.035687,0.007408,-0.008403,0.555207,0.574098,0.521517,0.532238,3.690650
0.937500,0.002353,-0.001436,0.497702,-0.270783,-0.195839,0.019381,0.019817,-0.037719,0.006309,0.535046,0.558881,0.548392,0.543018,3.690625
0.940000,0.002405,-0.001378,0.496906,-0.408420,-0.221835,0.019095,-0.008015,0.015798,0.007840,0.539273,0.538087,0.537718,0.590359,3.690600
0.942500,0.002420,-0.001372,0.496935,-0.617373,-0.150061,0.015099,0.009325,0.034175,-0.004909,0.547837,0.522440,0.529969,0.562133,3.690575
0.945000,0.002428,-0.001347,0.504071,0.196189,0.472472,-0.004156,-0.016669,0.013709,-0.002060,0.555695,0.538279,0.555347,0.548025,3.690550
0.947500,0.002372,-0.001106,0.499741,0.194670,0.126758,0.012859,-0.015146,0.023457,-0.002598,0.588790,0.516249,0.532980,0.557070,3.690525
0.950000,0.002311,-0.001127,0.497990,0.036351,0.391286,0.022492,-0.060457,-0.016490,-0.002096,0.565345,0.576996,0.549301,0.526830,3.690500
0.952500,0.002356,-0.000969,0.503672,0.613310,1.101363,0.027581,-0.034336,0.030796,-0.000561,0.549366,0.560537,0.597732,0.538410,3.690475
0.955000,0.002221,-0.000930,0.501011,-0.169391,-0.402445,0.022922,0.001776,0.004347,-0.025977,0.555547,0.567897,0.553838,0.533894,3.690450
0.957500,0.002297,-0.000960,0.502073,-0.412649,0.363151,0.011665,-0.034142,0.026964,-0.006739,0.535468,0.536549,0.550734,0.547665,3.690425
0.960000,0.002370,-0.000839,0.503403,0.437118,-0.680124,0.006474,-0.033708,-0.015508,0.029726,0.523583,0.545165,0.572979,0.564409,3.690400
0.962500,0.002361,-0.000754,0.503541,0.307984,0.398864,0.000980,-0.014894,-0.001746,-0.012071,0.547964,0.553492,0.584873,0.581154,3.690375
0.965000,0.002277,-0.000701,0.505293,-0.060142,-0.395350,0.018766,-0.008936,0.011440,-0.001342,0.548291,0.552447,0.572185,0.575257,3.690350
0.967500,0.002255,-0.000665,0.505162,0.347586,0.046534,0.008251,0.025203,-0.000343,-0.007870,0.552383,0.551483,0.554480,0.578949,3.690325
0.970000,0.002307,-0.000538,0.498447,0.299149,0.226165,0.009501,0.023057,-0.020777,0.016925,0.550328,0.589437,0.517638,0.529783,3.690300
0.972500,0.002319,-0.000539,0.497391,-0.239927,0.325522,0.017402,-0.001236,-0.023506,-0.007672,0.550329,0.561428,0.539601,0.531176,3.690275
0.975000,0.002375,-0.000456,0.503622,-0.348335,-0.865902,0.014821,-0.016079,0.002366,0.000201,0.549183,0.533989,0.554283,0.525709,3.690250
0.977500,0.002364,-0.000487,0.505775,0.012188,-0.140977,0.027143,0.033921,0.021915,-0.016954,0.513245,0.553025,0.546171,0.580608,3.690225
0.980000,0.002307,-0.000409,0.507280,0.045869,-0.516966,0.040343,-0.012659,-0.027368,-0.006617,0.551177,0.541204,0.557536,0.552620,3.690200
0.982500,0.002491,-0.000397,0.502044,0.178013,0.198913,0.036521,-0.008061,-0.028665,-0.002783,0.500972,0.575806,0.575061,0.541154,3.690175
0.985000,0.002575,-0.000350,0.508192,-0.502949,-0.404206,0.049592,0.002133,0.042504,-0.012716,0.574345,0.564300,0.502847,0.568617,3.690150
0.987500,0.002477,-0.000295,0.498167,-0.660738,-0.379190,0.035105,-0.030142,-0.004769,-0.000735,0.550843,0.545030,0.563054,0.515698,3.690125
0.990000,0.002552,-0.000213,0.503455,-0.353874,0.263281,0.033732,0.010841,-0.020595,-0.000556,0.495199,0.561265,0.563379,0.543918,3.690100
0.992500,0.002496,-0.000095,0.499399,-0.155878,-0.047710,0.040903,0.003849,0.032171,-0.023626,0.541741,0.543738,0.537858,0.534971,3.690075
0.995000,0.002292,-0.000006,0.490877,-0.318945,0.510008,0.046292,-0.023962,0.013022,-0.010602,0.556981,0.564661,0.538964,0.562741,3.690050
0.997500,0.002378,0.000045,0.505027,-0.060701,0.105304,0.047941,0.008501,-0.018030,-0.004958,0.566289,0.539060,0.551377,0.542082,3.690025
1.000000,0.002443,0.000193,0.503797,0.057362,-1.380872,0.039215,0.008852,-0.032432,0.015186,0.594657,0.563199,0.565125,0.565852,3.690000
1.002500,0.002588,0.000086,0.502229,-0.754465,-0.644161,0.050979,-0.007927,-0.007311,-0.010046,0.590867,0.535132,0.584745,0.511703,3.689975
1.005000,0.002459,0.000172,0.492234,0.038584,0.193224,0.039667,0.002349,-0.034051,-0.008470,0.546644,0.534053,0.570097,0.545120,3.689950
1.007500,0.002307,0.000169,0.497398,0.342836,-0.487303,0.033560,0.034921,0.018386,-0.007340,0.556142,0.547273,0.563894,0.584254,3.689925
1.010000,0.002065,0.000184,0.494353,-0.537497,-0.891004,0.018725,-0.035210,-0.003377,-0.005361,0.577567,0.590921,0.540439,0.539094,3.689900
1.012500,0.002042,0.000115,0.492322,0.407112,0.353604,0.013910,0.030114,0.030547,-0.013296,0.544597,0.564730,0.573530,0.520285,3.689875
1.015000,0.002204,0.000134,0.497497,0.328958,0.093309,0.025812,0.013405,0.016091,0.031395,0.570247,0.569524,0.557109,0.501557,3.689850
1.017500,0.002225,0.000151,0.502762,0.722962,0.253296,0.027250,-0.021958,0.003889,-0.000358,0.548964,0.566859,0.544271,0.541162,3.689825
1.020000,0.002156,-0.000026,0.506813,0.059929,-0.872861,0.013240,0.004689,-0.013051,-0.002180,0.528640,0.535025,0.568174,0.550244,3.689800
1.022500,0.002107,0.000018,0.504688,0.669837,0.404960,0.013973,0.000709,0.020142,-0.003649,0.512076,0.558358,0.530216,0.510158,3.689775
1.025000,0.001867,-0.000036,0.506724,-0.516267,0.259785,0.021933,-0.013615,0.008377,0.008638,0.540403,0.559562,0.559901,0.526912,3.689750
1.027500,0.001944,-0.000195,0.503365,0.345632,0.351402,0.011976,0.014483,0.003971,0.002049,0.587015,0.540498,0.532418,0.573860,3.689725
1.030000,0.001952,-0.000284,0.489024,0.690119,-0.145621,0.030665,-0.013585,0.014543,-0.003998,0.534951,0.499367,0.560307,0.553774,3.689700
1.032500,0.001909,-0.000505,0.495314,0.057913,0.213437,0.047987,0.015165,-0.019112,-0.000163,0.533326,0.552342,0.568787,0.567351,3.689675
1.035000,0.001894,-0.000514,0.509033,-0.010927,0.449967,0.051979,0.004774,0.001552,-0.014136,0.558427,0.555844,0.547400,0.546727,3.689650
1.037500,0.001850,-0.000392,0.491407,-0.379244,-0.144353,0.048045,-0.006469,0.025504,-0.015006,0.515565,0.563237,0.548724,0.558305,3.689625
1.040000,0.001761,-0.000431,0.505205,0.960639,-0.275504,0.061925,-0.009508,0.041772,0.008022,0.559429,0.531522,0.571727,0.561032,3.689600
1.042500,0.001611,-0.000463,0.504142,-0.000962,0.112247,0.060770,0.010136,-0.039624,-0.010795,0.549674,0.553539,0.570235,0.565860,3.689575
1.045000,0.001555,-0.000668,0.497695,0.660606,-0.082091,0.075424,-0.022678,0.027527,0.017732,0.571687,0.570906,0.545851,0.579816,3.689550
1.047500,0.001680,-0.000665,0.509347,0.765343,0.385919,0.055824,0.001102,0.002847,0.016088,0.522543,0.572267,0.539196,0.520386,3.689525
1.050000,0.001693,-0.000668,0.508863,-0.678181,-0.411182,0.049980,-0.037567,0.012464,0.004253,0.593550,0.556689,0.514752,0.508868,3.689500
1.052500,0.001710,-0.000883,0.498276,0.383755,0.419478,0.046784,-0.007488,0.016352,-0.002106,0.549113,0.540289,0.566816,0.549216,3.689475
1.055000,0.001679,-0.000815,0.497471,-0.584962,0.323684,0.026115,-0.012147,0.021824,0.013864,0.600460,0.581070,0.553453,0.523702,3.689450
1.057500,0.001689,-0.000955,0.500496,0.187473,-0.061339,0.031992,0.008885,-0.002912,0.010175,0.512153,0.539962,0.554580,0.563537,3.689425
1.060000,0.001694,-0.001078,0.502526,-0.255106,0.052798,0.047683,0.003761,0.005098,0.005146,0.584708,0.572368,0.560946,0.539035,3.689400
1.062500,0.001771,-0.001079,0.501582,-0.149612,0.518486,0.049250,-0.039254,-0.009144,-0.014503,0.586700,0.505551,0.531646,0.537300,3.689375
1.065000,0.001833,-0.000996,0.501872,-0.021946,-0.396593,0.045872,-0.025707,-0.005173,-0.003079,0.549042,0.595008,0.529325,0.560872,3.689350
1.067500,0.001956,-0.000917,0.499774,-0.436722,-0.339421,0.056441,0.003028,-0.010913,-0.010983,0.552175,0.563816,0.561813,0.546317,3.689325
1.070000,0.002139,-0.001002,0.501780,0.372401,-0.687689,0.050137,0.033493,0.010319,0.000085,0.541804,0.546220,0.559664,0.572243,3.689300
1.072500,0.002187,-0.001066,0.495736,-0.291227,-0.083505,0.048366,0.026222,-0.008377,0.011846,0.561725,0.531516,0.551953,0.584330,3.689275
1.075000,0.002215,-0.001112,0.491856,-0.096421,0.241828,0.051459,0.022396,-0.021740,-0.002644,0.555986,0.580748,0.520256,0.554813,3.689250
1.077500,0.002220,-0.001050,0.503552,-0.440264,0.927746,0.054460,-0.008321,-0.000721,0.019698,0.554661,0.528828,0.555203,0.551163,3.689225
